{


  "castle": [

    {
    "id": 1,
    "name": "Bran Castle",
    "latlng": {
      "lat": 45.5149,
      "lng": 25.3672
    }
  },
  {
    "id": 2,
    "name": "Peles Castle",
    "latlng": {
      "lat": 45.3600,
      "lng": 25.5426
    }
  },
  {
    "id": 3,
    "name": "Corvin Castle",
    "latlng": {
      "lat": 45.7493,
      "lng": 22.8883
    }
  },
  {
    "id": 4,
    "name": "Râșnov Citadel",
    "latlng": {
      "lat": 45.5906,
      "lng": 25.4694
    }
  },
  {
    "id": 5,
    "name": "Fagaras Citadel",
    "latlng": {
      "lat": 45.8453,
      "lng": 24.9738
    }
  },
  {
    "id": 6,
    "name": "The Citadel Alba-Carolina",
    "latlng": {
      "lat": 46.0686,
      "lng": 23.5717
    }
  },
  {
    "id": 7,
    "name": "Rupea Fortress",
    "latlng": {
      "lat": 46.0378,
      "lng": 25.2129
    }
  },
  {
    "id": 8,
    "name": "Sighișoara Citadel",
    "latlng": {
      "lat": 46.2198,
      "lng": 24.7920
    }
  },
  {
    "id": 9,
    "name": "Deva Fortress",
    "latlng": {
      "lat": 45.8887,
      "lng": 22.8970
    }
  },
  {
    "id": 10,
    "name": "Poenari Castle",
    "latlng": {
      "lat": 45.3536,
      "lng": 24.6351
    }
  }]


}
